[
  {
    "id": "dnthytte-solheimstulen",
    "name": "Solheimstulen",
    "region": "Hardangervidda",
    "county": "Buskerud",
    "status": "betjent",
    "source_url": "https://www.dnt.no/hytter/betjente/solheimstulen/",
    "lat": 60.29886,
    "lon": 8.33844
  },
  {
    "id": "dnthytte-rauhelleren",
    "name": "Rauhelleren",
    "region": "Hardangervidda",
    "county": "Buskerud",
    "status": "betjent",
    "source_url": "https://www.dnt.no/hytter/betjente/rauhelleren/",
    "lat": 60.25608,
    "lon": 7.8496
  },
  {
    "id": "dnthytte-marbu",
    "name": "Mårbu",
    "region": "Hardangervidda",
    "county": "Telemark",
    "status": "betjent",
    "source_url": "https://www.dnt.no/hytter/betjente/marbu/",
    "lat": 60.18577778,
    "lon": 8.17116667
  },
  {
    "id": "dnthytte-litlos",
    "name": "Litlos",
    "region": "Hardangervidda",
    "county": "Nordland",
    "status": "betjent",
    "source_url": "https://www.dnt.no/hytter/betjente/litlos/",
    "lat": 68.3563,
    "lon": 15.71411,
    "photo": "https://upload.wikimedia.org/wikipedia/commons/c/c3/Litelos.JPG?width=1024"
  },
  {
    "id": "dnthytte-sandhaug",
    "name": "Sandhaug",
    "region": "Hardangervidda",
    "county": "Vestland",
    "status": "betjent",
    "source_url": "https://www.dnt.no/hytter/betjente/sandhaug/",
    "lat": 60.18397222,
    "lon": 7.48188889,
    "photo": "https://upload.wikimedia.org/wikipedia/commons/d/d2/Sandhaug_turisthytte_p%C3%A5sken_2013.JPG?width=1024"
  },
  {
    "id": "dnthytte-stavali",
    "name": "Stavali",
    "region": "Hardangervidda",
    "county": "Vestland",
    "status": "betjent",
    "source_url": "https://www.dnt.no/hytter/betjente/stavali/",
    "lat": 60.32236,
    "lon": 6.86681,
    "photo": "https://upload.wikimedia.org/wikipedia/commons/f/f8/Stavali_2023.jpg?width=1024"
  },
  {
    "id": "dnthytte-kraekkja",
    "name": "Krækkja",
    "region": "Hardangervidda",
    "county": "Buskerud",
    "status": "betjent",
    "source_url": "https://www.dnt.no/hytter/betjente/kraekkja/",
    "lat": 60.43694,
    "lon": 7.7843,
    "photo": "https://upload.wikimedia.org/wikipedia/commons/b/bb/Storkr%C3%A6kkja.jpg?width=1024"
  },
  {
    "id": "dnthytte-kalhovd",
    "name": "Kalhovd",
    "region": "Hardangervidda",
    "county": "Telemark",
    "status": "betjent",
    "source_url": "https://www.dnt.no/hytter/betjente/kalhovd/",
    "lat": 60.06863889,
    "lon": 8.36963889,
    "photo": "https://upload.wikimedia.org/wikipedia/commons/a/a0/Kalhovd_turisthytte_inngangsparti_sommer.jpg?width=1024"
  },
  {
    "id": "dnthytte-mogen",
    "name": "Mogen",
    "region": "Hardangervidda",
    "county": "Buskerud",
    "status": "betjent",
    "source_url": "https://www.dnt.no/hytter/betjente/mogen/",
    "lat": 60.06338,
    "lon": 9.17601,
    "photo": "https://upload.wikimedia.org/wikipedia/commons/2/29/Mogen_turisthytte_2009-08-24.jpg?width=1024"
  },
  {
    "id": "dnthytte-gaustatoppen-turisthytte",
    "name": "Gaustatoppen turisthytte",
    "region": "Hardangervidda",
    "county": "Telemark",
    "status": "betjent",
    "source_url": "https://www.dnt.no/hytter/betjente/gaustatoppen/",
    "lat": 59.85044444,
    "lon": 8.65569444,
    "photo": "https://upload.wikimedia.org/wikipedia/commons/7/78/At_the_summit_of_Gaustatoppen.jpg?width=1024"
  },
  {
    "id": "dnthytte-fannarakhytta",
    "name": "Fannaråkhytta",
    "region": "Jotunheimen",
    "county": "Vestland",
    "status": "betjent",
    "source_url": "https://www.dnt.no/hytter/betjente/fannarakhytta/",
    "lat": 61.51647,
    "lon": 7.908028,
    "photo": "https://upload.wikimedia.org/wikipedia/commons/8/8a/Fannar%C3%A5khytta_in_Luster.jpg?width=1024"
  },
  {
    "id": "dnthytte-fondsbu",
    "name": "Fondsbu",
    "region": "Jotunheimen",
    "county": "Innlandet",
    "status": "betjent",
    "source_url": "https://www.dnt.no/hytter/betjente/fondsbu/",
    "lat": 61.37523,
    "lon": 8.29747
  },
  {
    "id": "dnthytte-glitterheim",
    "name": "Glitterheim",
    "region": "Jotunheimen",
    "county": "Innlandet",
    "status": "betjent",
    "source_url": "https://www.dnt.no/hytter/betjente/glitterheim/",
    "lat": 61.62265,
    "lon": 8.63237,
    "photo": "https://upload.wikimedia.org/wikipedia/commons/3/39/Glitterheim.jpg?width=1024"
  },
  {
    "id": "dnthytte-gjendebu",
    "name": "Gjendebu",
    "region": "Jotunheimen",
    "county": "Innlandet",
    "status": "betjent",
    "source_url": "https://www.dnt.no/hytter/betjente/gjendebu/",
    "lat": 61.451389,
    "lon": 8.4875,
    "photo": "https://upload.wikimedia.org/wikipedia/commons/5/5d/Gjendebu.jpg?width=1024"
  },
  {
    "id": "dnthytte-skogadalsboen",
    "name": "Skogadalsbøen",
    "region": "Jotunheimen",
    "county": "Vestland",
    "status": "betjent",
    "source_url": "https://www.dnt.no/hytter/betjente/skogadalsboeen/",
    "lat": 61.46315,
    "lon": 8.014,
    "photo": "https://upload.wikimedia.org/wikipedia/commons/3/37/Skogadalsb%C3%B8en_a_mountain_cabin_belonging_to_the_norwegian_toruist_association_zoom.jpg?width=1024"
  },
  {
    "id": "dnthytte-gjendesheim",
    "name": "Gjendesheim",
    "region": "Jotunheimen",
    "county": "Innlandet",
    "status": "betjent",
    "source_url": "https://www.dnt.no/hytter/betjente/gjendesheim/",
    "lat": 61.49383333,
    "lon": 8.81291667,
    "photo": "https://upload.wikimedia.org/wikipedia/commons/f/f9/Gjende_Gjendesheim01.jpg?width=1024"
  },
  {
    "id": "dnthytte-leirvassbu",
    "name": "Leirvassbu",
    "region": "Jotunheimen",
    "county": "Innlandet",
    "status": "betjent",
    "source_url": "https://www.dnt.no/hytter/betjente/leirvassbu/",
    "lat": 61.54872222,
    "lon": 8.24811111,
    "photo": "https://upload.wikimedia.org/wikipedia/commons/0/08/Leirvassbu_turisthytte_i_Jotunheimen.jpg?width=1024"
  },
  {
    "id": "dnthytte-grimsdalshytta",
    "name": "Grimsdalshytta",
    "region": "Rondane og Dovre",
    "county": "Innlandet",
    "status": "betjent",
    "source_url": "https://www.dnt.no/hytter/betjente/grimsdalshytta/",
    "lat": 62.09102778,
    "lon": 9.64175,
    "photo": "https://upload.wikimedia.org/wikipedia/commons/6/67/Rondane_foto_Monica_H_Langen_46.jpg?width=1024"
  },
  {
    "id": "dnthytte-bjornhollia",
    "name": "Bjørnhollia",
    "region": "Rondane og Dovre",
    "county": "Innlandet",
    "status": "betjent",
    "source_url": "https://www.dnt.no/hytter/betjente/bjornhollia/",
    "lat": 61.88405556,
    "lon": 10.0125,
    "photo": "https://upload.wikimedia.org/wikipedia/commons/f/fa/Bj%C3%B8rnhollia_turisthytte_01.JPG?width=1024"
  },
  {
    "id": "dnthytte-snoheim",
    "name": "Snøheim",
    "region": "Rondane og Dovre",
    "county": "Innlandet",
    "status": "betjent",
    "source_url": "https://www.dnt.no/hytter/betjente/snoheim/",
    "lat": 62.29417,
    "lon": 9.35067,
    "photo": "https://upload.wikimedia.org/wikipedia/commons/4/48/Sn%C3%B8heim.JPG?width=1024"
  },
  {
    "id": "dnthytte-rondvassbu",
    "name": "Rondvassbu",
    "region": "Rondane og Dovre",
    "county": "Innlandet",
    "status": "betjent",
    "source_url": "https://www.dnt.no/hytter/betjente/rondvassbu/",
    "lat": 61.87875,
    "lon": 9.79633333,
    "photo": "https://upload.wikimedia.org/wikipedia/commons/8/83/Rondvassbu.jpg?width=1024"
  },
  {
    "id": "dnthytte-vangshaugen",
    "name": "Vangshaugen",
    "region": "Rondane og Dovre",
    "county": "Møre og Romsdal",
    "status": "betjent",
    "source_url": "https://www.dnt.no/hytter/betjente/vangshaugen/",
    "lat": 62.54342,
    "lon": 8.95611
  },
  {
    "id": "dnthytte-trollheimshytta",
    "name": "Trollheimshytta",
    "region": "Trollheimen og Sylan",
    "county": "Møre og Romsdal",
    "status": "betjent",
    "source_url": "https://www.dnt.no/hytter/betjente/trollheimshytta/",
    "lat": 62.82908333,
    "lon": 9.23916667,
    "photo": "https://upload.wikimedia.org/wikipedia/commons/9/96/Trollheimshytta.JPG?width=1024"
  },
  {
    "id": "dnthytte-gjevilvasshytta",
    "name": "Gjevilvasshytta",
    "region": "Trollheimen og Sylan",
    "county": "Trøndelag",
    "status": "betjent",
    "source_url": "https://www.dnt.no/hytter/betjente/gjevilvasshytta/",
    "lat": 62.69808889,
    "lon": 9.42077611,
    "photo": "https://upload.wikimedia.org/wikipedia/commons/e/e1/Gjevilvasshytta_sommer.JPG?width=1024"
  },
  {
    "id": "dnthytte-joldalshytta",
    "name": "Jøldalshytta",
    "region": "Trollheimen og Sylan",
    "county": "Trøndelag",
    "status": "betjent",
    "source_url": "https://www.dnt.no/hytter/betjente/joldalshytta/",
    "lat": 62.86269444,
    "lon": 9.50936111,
    "photo": "https://upload.wikimedia.org/wikipedia/commons/3/33/J%C3%B8ldalshytta_sommer.JPG?width=1024"
  },
  {
    "id": "dnthytte-todalshytta",
    "name": "Todalshytta",
    "region": "Trollheimen og Sylan",
    "county": "Møre og Romsdal",
    "status": "betjent",
    "source_url": "https://www.dnt.no/hytter/betjente/todalshytta/",
    "lat": 62.80393,
    "lon": 8.73364
  },
  {
    "id": "dnthytte-storerikvollen",
    "name": "Storerikvollen",
    "region": "Trollheimen og Sylan",
    "county": "Trøndelag",
    "status": "betjent",
    "source_url": "https://www.dnt.no/hytter/betjente/storerikvollen/",
    "lat": 63.11169444,
    "lon": 11.98175,
    "photo": "https://upload.wikimedia.org/wikipedia/commons/6/6d/Storerikvollen.JPG?width=1024"
  },
  {
    "id": "dnthytte-nedalshytta",
    "name": "Nedalshytta",
    "region": "Trollheimen og Sylan",
    "county": "Trøndelag",
    "status": "betjent",
    "source_url": "https://www.dnt.no/hytter/betjente/nedalshytta/",
    "lat": 62.97823937,
    "lon": 12.10118294,
    "photo": "https://upload.wikimedia.org/wikipedia/commons/6/61/Nedalshytta.jpg?width=1024"
  },
  {
    "id": "dnthytte-schulzhytta",
    "name": "Schulzhytta",
    "region": "Trollheimen og Sylan",
    "county": "Trøndelag",
    "status": "betjent",
    "source_url": "https://www.dnt.no/hytter/betjente/schulzhytta/",
    "lat": 63.21150877,
    "lon": 11.5059042,
    "photo": "https://upload.wikimedia.org/wikipedia/commons/d/d3/Schulzhytta.JPG?width=1024"
  },
  {
    "id": "dnthytte-iungsdalshytta",
    "name": "Iungsdalshytta",
    "region": "Skarvheimen",
    "county": "Buskerud",
    "status": "betjent",
    "source_url": "https://www.dnt.no/hytter/betjente/iungsdalshytta/",
    "lat": 60.8097,
    "lon": 7.93423
  },
  {
    "id": "dnthytte-aurlandsdalen-turisthytte",
    "name": "Aurlandsdalen turisthytte",
    "region": "Skarvheimen",
    "county": "Vestland",
    "status": "betjent",
    "source_url": "https://www.dnt.no/hytter/betjente/aurlandsdalen/",
    "lat": 60.82848,
    "lon": 7.50471
  },
  {
    "id": "dnthytte-geiterygghytta",
    "name": "Geiterygghytta",
    "region": "Skarvheimen",
    "county": "Buskerud",
    "status": "betjent",
    "source_url": "https://www.dnt.no/hytter/betjente/geiterygghytta/",
    "lat": 60.70083333,
    "lon": 7.60347222,
    "photo": "https://upload.wikimedia.org/wikipedia/commons/4/41/DNT_cabin_Geiterygghytta_in_winter.jpg?width=1024"
  },
  {
    "id": "dnthytte-finsehytta",
    "name": "Finsehytta",
    "region": "Skarvheimen",
    "county": "Vestland",
    "status": "betjent",
    "source_url": "https://www.dnt.no/hytter/betjente/finsehytta/",
    "lat": 60.59793,
    "lon": 7.50698,
    "photo": "https://upload.wikimedia.org/wikipedia/commons/1/1f/Finsehytta-wv.jpg?width=1024"
  },
  {
    "id": "dnthytte-haukeliseter",
    "name": "Haukeliseter",
    "region": "Ryfylke",
    "county": "Telemark",
    "status": "betjent",
    "source_url": "https://www.dnt.no/hytter/betjente/haukeliseter/",
    "lat": 59.82376,
    "lon": 7.19421,
    "photo": "https://upload.wikimedia.org/wikipedia/commons/7/71/Hardangervidda-_Tag_1.jpg?width=1024"
  },
  {
    "id": "dnthytte-stranddalen-turisthytte",
    "name": "Stranddalen turisthytte",
    "region": "Ryfylke",
    "county": "Rogaland",
    "status": "betjent",
    "source_url": "https://www.dnt.no/hytter/betjente/stranddalen/",
    "lat": 59.43826,
    "lon": 6.71875,
    "photo": "https://upload.wikimedia.org/wikipedia/commons/b/b5/Stranddalen2.jpg?width=1024"
  },
  {
    "id": "dnthytte-lysefjorden-turisthytte",
    "name": "Lysefjorden turisthytte",
    "region": "Ryfylke",
    "county": "Rogaland",
    "status": "betjent",
    "source_url": "https://www.dnt.no/hytter/betjente/lysefjorden/",
    "lat": 59.05494,
    "lon": 6.6486
  },
  {
    "id": "dnthytte-gramstadtunet",
    "name": "Gramstadtunet",
    "region": "Ryfylke",
    "county": "Rogaland",
    "status": "betjent",
    "source_url": "https://www.dnt.no/hytter/betjente/gramstadtunet/",
    "lat": 58.88422,
    "lon": 5.79915
  },
  {
    "id": "dnthytte-sota-saeter",
    "name": "Sota Sæter",
    "region": "Breheimen/Jostedalsbreen",
    "county": "Innlandet",
    "status": "betjent",
    "source_url": "https://www.dnt.no/hytter/betjente/sota-saeter/",
    "lat": 61.8096,
    "lon": 7.7101,
    "photo": "https://upload.wikimedia.org/wikipedia/commons/c/c8/Sota_Seter_with_main_building.jpg?width=1024"
  },
  {
    "id": "dnthytte-nordstedalseter",
    "name": "Nørdstedalseter",
    "region": "Breheimen/Jostedalsbreen",
    "county": "Vestland",
    "status": "betjent",
    "source_url": "https://www.dnt.no/hytter/betjente/nordstedalseter/",
    "lat": 61.64275,
    "lon": 7.79016,
    "photo": "https://upload.wikimedia.org/wikipedia/commons/f/f4/N%C3%B8rdstedalseter_i_Breheimen_sommeren_2013._DNT_turisthytte..JPG?width=1024"
  },
  {
    "id": "dnthytte-tungestolen",
    "name": "Tungestølen",
    "region": "Breheimen/Jostedalsbreen",
    "county": "Vestland",
    "status": "betjent",
    "source_url": "https://www.dnt.no/hytter/betjente/tungestolen/",
    "lat": 61.54386111,
    "lon": 6.97191667
  },
  {
    "id": "dnthytte-liomseter",
    "name": "Liomseter",
    "region": "Langsua og Femundsmarka",
    "county": "Innlandet",
    "status": "betjent",
    "source_url": "https://www.dnt.no/hytter/betjente/liomseter/",
    "lat": 61.24233333,
    "lon": 9.59469444,
    "photo": "https://upload.wikimedia.org/wikipedia/commons/a/a8/Liomseter2.JPG?width=1024"
  },
  {
    "id": "dnthytte-svukuriset",
    "name": "Svukuriset",
    "region": "Langsua og Femundsmarka",
    "county": "Innlandet",
    "status": "betjent",
    "source_url": "https://www.dnt.no/hytter/betjente/svukuriset/",
    "lat": 62.22146,
    "lon": 12.01502
  },
  {
    "id": "dnthytte-eiksetra",
    "name": "Eiksetra",
    "region": "Oslo/Drammen-området",
    "county": "Buskerud",
    "status": "betjent",
    "source_url": "https://www.dnt.no/hytter/betjente/eiksetra/",
    "lat": 59.81944444,
    "lon": 10.12722222,
    "photo": "https://upload.wikimedia.org/wikipedia/commons/2/2b/Konnerud%2C_Eiksetra_-_31_-_Turnforeningen_Gymnos%2C_Drammen_-_15.jpg?width=1024"
  },
  {
    "id": "dnthytte-saeteren-gard",
    "name": "Sæteren Gård",
    "region": "Oslo/Drammen-området",
    "county": "Akershus",
    "status": "betjent",
    "source_url": "https://www.dnt.no/hytter/betjente/saeteren-gard/",
    "lat": 59.9479,
    "lon": 10.5625
  },
  {
    "id": "dnthytte-breivoll-gard",
    "name": "Breivoll Gård",
    "region": "Oslo/Drammen-området",
    "county": "Akershus",
    "status": "betjent",
    "source_url": "https://www.dnt.no/hytter/betjente/breivoll-gard/",
    "lat": 59.73364,
    "lon": 10.72927
  },
  {
    "id": "dnthytte-kobberhaughytta",
    "name": "Kobberhaughytta",
    "region": "Oslo/Drammen-området",
    "county": "Oslo",
    "status": "betjent",
    "source_url": "https://www.dnt.no/hytter/betjente/kobberhaughytta/",
    "lat": 60.03608333,
    "lon": 10.66363889,
    "photo": "https://upload.wikimedia.org/wikipedia/commons/2/24/Kobberhaughytta1.jpg?width=1024"
  }
]