[
  {
    "id": "Q214535",
    "name": "Glomma",
    "length": 604,
    "photo": "https://commons.wikimedia.org/wiki/Special:FilePath/Fetssund%20Lenser.jpg?width=1024",
    "lat": 59.176515,
    "lon": 10.956667,
    "county": "Østfold"
  },
  {
    "id": "Q1338024",
    "name": "Klarälven",
    "length": 460,
    "photo": "https://commons.wikimedia.org/wiki/Special:FilePath/Klar%C3%A4lven%20vid%20Stackerud%20-%20KMB%20-%2016000300030413.jpg?width=1024",
    "lat": 59.388611111111,
    "lon": 13.498333333333
  },
  {
    "id": "Q524612",
    "name": "Pasvikelva",
    "length": 385.3,
    "photo": "https://commons.wikimedia.org/wiki/Special:FilePath/Harefossen2.jpg?width=1024",
    "lat": 69.68135,
    "lon": 30.11035,
    "county": "Finnmark"
  },
  {
    "id": "Q829866",
    "name": "Tana",
    "length": 369.6,
    "photo": "https://commons.wikimedia.org/wiki/Special:FilePath/Tenojokiriver3.jpg?width=1024",
    "lat": 70.5,
    "lon": 28.3959,
    "county": "Finnmark"
  },
  {
    "id": "Q1420630",
    "name": "Numedalslågen",
    "length": 358.3,
    "photo": "https://commons.wikimedia.org/wiki/Special:FilePath/L%C3%A5genfoss%20bei%20Kongsberg%202.jpg?width=1024",
    "lat": 59.0375,
    "lon": 10.0556,
    "county": "Buskerud"
  },
  {
    "id": "Q20113109",
    "name": "Sævareidelva",
    "length": 250,
    "lat": 60.18977,
    "lon": 5.76234,
    "county": "Vestland"
  },
  {
    "id": "Q642694",
    "name": "Otra",
    "length": 245,
    "photo": "https://commons.wikimedia.org/wiki/Special:FilePath/Otra.jpg?width=1024",
    "lat": 59.619961,
    "lon": 7.427355,
    "county": "Agder"
  },
  {
    "id": "Q433744",
    "name": "Altaelva",
    "length": 229,
    "photo": "https://commons.wikimedia.org/wiki/Special:FilePath/Altaelva%20canyon.JPG?width=1024",
    "lat": 69.900944444444,
    "lon": 23.284,
    "county": "Finnmark"
  },
  {
    "id": "Q1518561",
    "name": "Namsen",
    "length": 229,
    "photo": "https://commons.wikimedia.org/wiki/Special:FilePath/Namsen%20kvatningen.JPG?width=1024",
    "lat": 64.9992,
    "lon": 13.7422,
    "county": "Trøndelag"
  },
  {
    "id": "Q1538332",
    "name": "Hallingdalselve",
    "length": 220,
    "photo": "https://commons.wikimedia.org/wiki/Special:FilePath/Hallingdalselva%2C%20Nesbyen%2001.jpg?width=1024",
    "lat": 60.383333333333,
    "lon": 9.5833333333333,
    "county": "Buskerud"
  },
  {
    "id": "Q792016",
    "name": "Begna",
    "length": 213,
    "photo": "https://commons.wikimedia.org/wiki/Special:FilePath/Smedlund%2C%20S%C3%B8r-Aurdal.JPG?width=1024",
    "lat": 60.166666666667,
    "lon": 10.266666666667,
    "county": "Buskerud"
  },
  {
    "id": "Q1393243",
    "name": "Nidelva",
    "length": 210,
    "photo": "https://commons.wikimedia.org/wiki/Special:FilePath/Nidelva%20ved%20Blakstad.JPG?width=1024",
    "lat": 58.4165,
    "lon": 8.7403,
    "county": "Agder"
  },
  {
    "id": "Q927499",
    "name": "Lågen",
    "length": 204,
    "photo": "https://commons.wikimedia.org/wiki/Special:FilePath/L%C3%A5gendeltaet.jpg?width=1024",
    "lat": 61.133333333333,
    "lon": 10.416666666667,
    "county": "Innlandet"
  },
  {
    "id": "Q497783",
    "name": "Orkla",
    "length": 179,
    "photo": "https://commons.wikimedia.org/wiki/Special:FilePath/Orkanger%2003.jpg?width=1024",
    "lat": 63.306111111111,
    "lon": 9.8466944444444,
    "county": "Trøndelag"
  },
  {
    "id": "Q1728986",
    "name": "Karasjohka",
    "length": 166,
    "photo": "https://commons.wikimedia.org/wiki/Special:FilePath/SUC50562.JPG?width=1024",
    "lat": 69.43555556,
    "lon": 25.80444444,
    "county": "Finnmark"
  },
  {
    "id": "Q1364212",
    "name": "Rena",
    "length": 165,
    "photo": "https://commons.wikimedia.org/wiki/Special:FilePath/Rena%20I.jpg?width=1024",
    "lat": 61.135555555556,
    "lon": 11.386111111111,
    "county": "Innlandet"
  },
  {
    "id": "Q180550",
    "name": "Vefsna",
    "length": 163,
    "photo": "https://commons.wikimedia.org/wiki/Special:FilePath/Laksforsen.jpg?width=1024",
    "lat": 65.84527778,
    "lon": 13.1825,
    "county": "Nordland"
  },
  {
    "id": "Q486437",
    "name": "Anárjohka",
    "length": 155.7,
    "photo": "https://commons.wikimedia.org/wiki/Special:FilePath/Anarjohka%20river%2C%20Norway-Finland%20border.jpg?width=1024",
    "lat": 68.7251,
    "lon": 24.35275,
    "county": "Finnmark"
  },
  {
    "id": "Q1146090",
    "name": "Sira",
    "length": 152,
    "photo": "https://commons.wikimedia.org/wiki/Special:FilePath/Aana-Sira.jpg?width=1024",
    "lat": 58.276766,
    "lon": 6.375647,
    "county": "Rogaland"
  },
  {
    "id": "Q82824",
    "name": "Kvina",
    "length": 151,
    "photo": "https://commons.wikimedia.org/wiki/Special:FilePath/Utsikten.jpg?width=1024",
    "lat": 58.2722,
    "lon": 6.8884,
    "county": "Agder"
  },
  {
    "id": "Q1259332",
    "name": "Driva",
    "length": 150,
    "photo": "https://commons.wikimedia.org/wiki/Special:FilePath/Gikling.JPG?width=1024",
    "lat": 62.6674,
    "lon": 8.5794,
    "county": "Møre og Romsdal"
  },
  {
    "id": "Q1226044",
    "name": "Neidenelva",
    "length": 149.2,
    "photo": "https://commons.wikimedia.org/wiki/Special:FilePath/Neiden%20panorama.jpg?width=1024",
    "lat": 69.70222,
    "lon": 29.53889,
    "county": "Finnmark"
  },
  {
    "id": "Q1496041",
    "name": "Gaula",
    "length": 145,
    "photo": "https://commons.wikimedia.org/wiki/Special:FilePath/Gaula%20River%20at%20Kots%C3%B8y.jpg?width=1024",
    "lat": 62.879074,
    "lon": 11.703601,
    "county": "Trøndelag"
  },
  {
    "id": "Q1581016",
    "name": "Tovdalselva",
    "length": 143,
    "photo": "https://commons.wikimedia.org/wiki/Special:FilePath/Tovdalselva%20Kristiansand%20foss%20Birkenes%20drangsholtmyra%20IMG%202518.jpg?width=1024",
    "lat": 58.8086,
    "lon": 8.1589,
    "county": "Agder"
  },
  {
    "id": "Q1957603",
    "name": "Målselva",
    "length": 140,
    "photo": "https://commons.wikimedia.org/wiki/Special:FilePath/M%C3%A5lselva%20river%282%29.jpg?width=1024",
    "lat": 69.233333333333,
    "lon": 18.5,
    "county": "Troms"
  },
  {
    "id": "Q1808066",
    "name": "Otta",
    "length": 135,
    "photo": "https://commons.wikimedia.org/wiki/Special:FilePath/Ottariver.jpg?width=1024",
    "lat": 61.7675,
    "lon": 9.5453,
    "county": "Innlandet"
  },
  {
    "id": "Q136652337",
    "name": "Råna",
    "length": 133,
    "lat": 58.91393,
    "lon": 9.32148,
    "county": "Telemark"
  },
  {
    "id": "Q1861845",
    "name": "Ranelva",
    "length": 130,
    "photo": "https://commons.wikimedia.org/wiki/Special:FilePath/RanelvaSelfors01.JPG?width=1024",
    "lat": 66.33415,
    "lon": 14.130135,
    "county": "Nordland"
  },
  {
    "id": "Q2527201",
    "name": "Vinstra",
    "length": 128,
    "photo": "https://commons.wikimedia.org/wiki/Special:FilePath/Olstappen%20dam%2C%20Norway.jpg?width=1024",
    "lat": 61.590481,
    "lon": 9.752162,
    "county": "Innlandet"
  },
  {
    "id": "Q1603703",
    "name": "Reisaelva",
    "length": 127,
    "photo": "https://commons.wikimedia.org/wiki/Special:FilePath/Reisaelva%20fra%20Jiert%C3%A1%2020170727%20152807.jpg?width=1024",
    "lat": 69.786111,
    "lon": 21.008056,
    "county": "Troms"
  },
  {
    "id": "Q1428975",
    "name": "Flisa",
    "length": 126.8,
    "photo": "https://commons.wikimedia.org/wiki/Special:FilePath/Flisa%20bru%201.jpg?width=1024",
    "lat": 60.588846,
    "lon": 12.019061,
    "county": "Innlandet"
  },
  {
    "id": "Q138631",
    "name": "Mandalselva",
    "length": 115,
    "photo": "https://commons.wikimedia.org/wiki/Special:FilePath/Mandalselva%20sett%20fra%20piren.JPG?width=1024",
    "lat": 58.019494,
    "lon": 7.455761,
    "county": "Agder"
  },
  {
    "id": "Q661191",
    "name": "Folla",
    "length": 106,
    "photo": "https://commons.wikimedia.org/wiki/Special:FilePath/Grimsmoen%202010-11-16.jpg?width=1024",
    "lat": 62.1806,
    "lon": 9.4849,
    "county": "Innlandet"
  },
  {
    "id": "Q1801202",
    "name": "Lakselva",
    "length": 103.1,
    "photo": "https://commons.wikimedia.org/wiki/Special:FilePath/Lakselva%20near%20Lakselv.jpg?width=1024",
    "lat": 69.79616,
    "lon": 25.31609,
    "county": "Finnmark"
  },
  {
    "id": "Q1748443",
    "name": "Sjoa",
    "length": 98,
    "photo": "https://commons.wikimedia.org/wiki/Special:FilePath/Ridderspranget.JPG?width=1024",
    "lat": 61.683333333333,
    "lon": 9.55,
    "county": "Innlandet"
  },
  {
    "id": "Q757530",
    "name": "Atna",
    "length": 97,
    "lat": 61.733333333333,
    "lon": 10.816666666667,
    "county": "Innlandet"
  },
  {
    "id": "Q829748",
    "name": "Simoa",
    "length": 88,
    "photo": "https://commons.wikimedia.org/wiki/Special:FilePath/Haugfossen.JPEG?width=1024",
    "lat": 59.99633,
    "lon": 9.72894,
    "county": "Buskerud"
  },
  {
    "id": "Q555450",
    "name": "Akerselva",
    "length": 82,
    "photo": "https://commons.wikimedia.org/wiki/Special:FilePath/Akerselva%20M%C3%B8llerfossene%2018jun2005.jpg?width=1024",
    "lat": 59.907514,
    "lon": 10.755474,
    "county": "Oslo"
  },
  {
    "id": "Q1860746",
    "name": "Nea",
    "length": 80,
    "photo": "https://commons.wikimedia.org/wiki/Special:FilePath/Nea%20I.jpg?width=1024",
    "lat": 63.230117,
    "lon": 11.01408,
    "county": "Trøndelag"
  },
  {
    "id": "Q1559602",
    "name": "Ljøra",
    "length": 80,
    "lat": 61.305138888889,
    "lon": 13.0775,
    "county": "Innlandet"
  },
  {
    "id": "Q2215369",
    "name": "Saltelva",
    "length": 78.1,
    "lat": 67.106407,
    "lon": 15.424447,
    "county": "Nordland"
  },
  {
    "id": "Q101117929",
    "name": "Goššjohka",
    "length": 77.5,
    "lat": 69.03919,
    "lon": 25.25236,
    "county": "Finnmark"
  },
  {
    "id": "Q1020247",
    "name": "Børselva",
    "length": 74.5,
    "photo": "https://commons.wikimedia.org/wiki/Special:FilePath/Borselv9.jpg?width=1024",
    "lat": 70.31703,
    "lon": 25.56975,
    "county": "Finnmark"
  },
  {
    "id": "Q1773519",
    "name": "Skibotnelva",
    "length": 73.7,
    "photo": "https://commons.wikimedia.org/wiki/Special:FilePath/Storfjord%20Skibotndalen%20lub%202025-07-18%20img02.jpg?width=1024",
    "lat": 69.384623,
    "lon": 20.256357,
    "county": "Troms"
  },
  {
    "id": "Q11961254",
    "name": "Bjoreio",
    "length": 72,
    "photo": "https://commons.wikimedia.org/wiki/Special:FilePath/V%C3%B8ringfossen.jpg?width=1024",
    "lat": 60.2865568,
    "lon": 7.5624561,
    "county": "Vestland"
  },
  {
    "id": "Q1334183",
    "name": "Skjoma",
    "length": 71,
    "lat": 68.251753,
    "lon": 17.388253,
    "county": "Nordland"
  },
  {
    "id": "Q59260988",
    "name": "Masjokelva",
    "length": 70.7,
    "lat": 70.36557,
    "lon": 27.43005,
    "county": "Finnmark"
  },
  {
    "id": "Q185819",
    "name": "Barduelva",
    "length": 70,
    "photo": "https://commons.wikimedia.org/wiki/Special:FilePath/Bardu.jpg?width=1024",
    "lat": 69.045277777778,
    "lon": 18.619722222222,
    "county": "Troms"
  },
  {
    "id": "Q1785090",
    "name": "Gaula",
    "length": 70,
    "photo": "https://commons.wikimedia.org/wiki/Special:FilePath/Gaula-Gaular-Norway.jpg?width=1024",
    "lat": 61.3664,
    "lon": 5.6968,
    "county": "Vestland"
  },
  {
    "id": "Q11889031",
    "name": "Polmakelva",
    "length": 69.2,
    "lat": 70.02468,
    "lon": 28.04301,
    "county": "Finnmark"
  },
  {
    "id": "Q494838",
    "name": "Rauma",
    "length": 68,
    "photo": "https://commons.wikimedia.org/wiki/Special:FilePath/Slettafossen.jpg?width=1024",
    "lat": 62.2293,
    "lon": 8.3602,
    "county": "Møre og Romsdal"
  },
  {
    "id": "Q17450111",
    "name": "Signaldalelva",
    "length": 64.96,
    "photo": "https://commons.wikimedia.org/wiki/Special:FilePath/Otertinden%20and%20Signaldalelva%20in%20Storfjord%2C%20Troms%20og%20Finnmark%2C%20Norway%2C%202018%20September.jpg?width=1024",
    "county": "Troms"
  },
  {
    "id": "Q12008730",
    "name": "Uvdalselvi",
    "length": 64.9171642,
    "photo": "https://commons.wikimedia.org/wiki/Special:FilePath/Uvdalselva%20ved%20St%C3%B6lo%20IMG%201527.JPG?width=1024",
    "lat": 60.27144,
    "lon": 8.68384,
    "county": "Buskerud"
  },
  {
    "id": "Q12379378",
    "name": "Adamsfjordelva",
    "length": 64.1,
    "photo": "https://commons.wikimedia.org/wiki/Special:FilePath/Norwegen-Adamsfjordelva%20-P1290549.jpg?width=1024",
    "lat": 70.38172,
    "lon": 26.6303,
    "county": "Finnmark"
  },
  {
    "id": "Q2145142",
    "name": "Repparfjordelva",
    "length": 61.8,
    "photo": "https://commons.wikimedia.org/wiki/Special:FilePath/Hammerfest%20Repparfjordelva%20lub%202025-07-16%20img03.jpg?width=1024",
    "lat": 70.448846,
    "lon": 24.32303,
    "county": "Finnmark"
  },
  {
    "id": "Q65028830",
    "name": "Váljohka",
    "length": 60.2,
    "lat": 69.69723,
    "lon": 25.94135,
    "county": "Finnmark"
  },
  {
    "id": "Q291311",
    "name": "Stabburselva",
    "length": 60,
    "lat": 69.837,
    "lon": 24.2319,
    "county": "Finnmark"
  },
  {
    "id": "Q1144503",
    "name": "Jakobselva",
    "length": 59.2,
    "photo": "https://commons.wikimedia.org/wiki/Special:FilePath/Jakobselva%2001.jpg?width=1024",
    "lat": 70.1071,
    "lon": 29.327,
    "county": "Finnmark"
  },
  {
    "id": "Q105581013",
    "name": "Ulla",
    "length": 58.2,
    "lat": 59.43135,
    "lon": 6.81807,
    "county": "Rogaland"
  },
  {
    "id": "Q24327217",
    "name": "Skiehččanjohka",
    "length": 58.2,
    "lat": 68.6914,
    "lon": 25.11356,
    "county": "Finnmark"
  },
  {
    "id": "Q25439066",
    "name": "Storelva",
    "length": 56.1,
    "lat": 70.359,
    "lon": 26.4799,
    "county": "Finnmark"
  },
  {
    "id": "Q814631",
    "name": "Beiarelva",
    "length": 56,
    "photo": "https://commons.wikimedia.org/wiki/Special:FilePath/Beiarelva%20ved%20Segelfjell.jpg?width=1024",
    "lat": 67.034543,
    "lon": 14.585323,
    "county": "Nordland"
  },
  {
    "id": "Q11250398",
    "name": "Songdalselva",
    "length": 55.4,
    "photo": "https://commons.wikimedia.org/wiki/Special:FilePath/Songdalselva1.JPG?width=1024",
    "lat": 58.0762,
    "lon": 7.8155,
    "county": "Agder"
  },
  {
    "id": "Q502866",
    "name": "Audna",
    "length": 55,
    "photo": "https://commons.wikimedia.org/wiki/Special:FilePath/Melhusfossen010916.jpg?width=1024",
    "lat": 58.0578,
    "lon": 7.2791,
    "county": "Agder"
  },
  {
    "id": "Q1144836",
    "name": "Komagelva",
    "length": 52.6,
    "lat": 70.2414,
    "lon": 30.52351,
    "county": "Finnmark"
  },
  {
    "id": "Q2503760",
    "name": "Munkelva",
    "length": 51.8,
    "lat": 69.64403,
    "lon": 29.43719,
    "county": "Finnmark"
  },
  {
    "id": "Q19369136",
    "name": "Sandfjordelva",
    "length": 51.3,
    "photo": "https://commons.wikimedia.org/wiki/Special:FilePath/Sandfjordelva%20in%20B%C3%A5tsfjord.jpg?width=1024",
    "lat": 70.3675,
    "lon": 29.6943,
    "county": "Finnmark"
  },
  {
    "id": "Q35406339",
    "name": "Sukielva",
    "length": 51.2,
    "lat": 70.2645,
    "lon": 28.18,
    "county": "Finnmark"
  },
  {
    "id": "Q2203089",
    "name": "Røssåga",
    "length": 50,
    "lat": 66.160948,
    "lon": 13.802576,
    "county": "Nordland"
  },
  {
    "id": "Q1515239",
    "name": "Stjørdalselva",
    "length": 50,
    "photo": "https://commons.wikimedia.org/wiki/Special:FilePath/Stj%C3%B8rdalen.JPG?width=1024",
    "lat": 63.45059,
    "lon": 10.92985,
    "county": "Trøndelag"
  },
  {
    "id": "Q430480",
    "name": "Jakobselva",
    "length": 49.6,
    "photo": "https://commons.wikimedia.org/wiki/Special:FilePath/N886-Jakobselv-2012-07-06-13-02-032.jpg?width=1024",
    "lat": 69.70831,
    "lon": 30.86909,
    "county": "Finnmark"
  },
  {
    "id": "Q41245845",
    "name": "Syltefjordelva",
    "length": 49.3,
    "lat": 70.5314,
    "lon": 30.0128,
    "county": "Finnmark"
  },
  {
    "id": "Q60291066",
    "name": "Lákšjohka",
    "length": 48.8,
    "lat": 70.29392,
    "lon": 27.31358,
    "county": "Finnmark"
  },
  {
    "id": "Q12003390",
    "name": "Stordalselva",
    "length": 48.5,
    "photo": "https://commons.wikimedia.org/wiki/Special:FilePath/PICT0628%20Stovelfossen%20laks.jpg?width=1024",
    "lat": 63.95,
    "lon": 10.233333333333,
    "county": "Trøndelag"
  },
  {
    "id": "Q537889",
    "name": "Drammenselva",
    "length": 48,
    "photo": "https://commons.wikimedia.org/wiki/Special:FilePath/Drammen%20aerial.jpg?width=1024",
    "lat": 60.010833333333,
    "lon": 10.042777777778,
    "county": "Buskerud"
  },
  {
    "id": "Q37343662",
    "name": "Vesterelva",
    "length": 46.7,
    "lat": 70.15589,
    "lon": 28.56576,
    "county": "Finnmark"
  },
  {
    "id": "Q24329817",
    "name": "Gallokelva",
    "length": 45.3,
    "lat": 69.71016,
    "lon": 28.9574,
    "county": "Finnmark"
  },
  {
    "id": "Q19369131",
    "name": "Langfjordelva",
    "length": 44.7,
    "photo": "https://commons.wikimedia.org/wiki/Special:FilePath/Norwegen%20Langfjordelva%20%28Laggu%29%20Gamvik%201290362.jpg?width=1024",
    "lat": 70.6217,
    "lon": 27.6394,
    "county": "Finnmark"
  },
  {
    "id": "Q20112806",
    "name": "Sandneselva",
    "length": 44.6,
    "lat": 69.66655,
    "lon": 29.91126,
    "county": "Finnmark"
  },
  {
    "id": "Q24312542",
    "name": "Silisjoki",
    "length": 44.4,
    "lat": 69.61535,
    "lon": 28.3335,
    "county": "Finnmark"
  },
  {
    "id": "Q131372569",
    "name": "Tannåa",
    "length": 42,
    "lat": 61.1642903,
    "lon": 12.7792135,
    "county": "Innlandet"
  },
  {
    "id": "Q128609926",
    "name": "elv fra Store Sameti",
    "length": 42,
    "lat": 69.46633,
    "lon": 29.63746,
    "county": "Finnmark"
  },
  {
    "id": "Q30322475",
    "name": "Sametielva",
    "length": 41.9,
    "lat": 69.45864,
    "lon": 29.64004,
    "county": "Finnmark"
  },
  {
    "id": "Q19371079",
    "name": "Lora",
    "length": 41.5,
    "photo": "https://commons.wikimedia.org/wiki/Special:FilePath/Lorkverna6416.JPG?width=1024",
    "lat": 62.050008,
    "lon": 8.313169,
    "county": "Innlandet"
  },
  {
    "id": "Q1776508",
    "name": "Rotla",
    "length": 40,
    "lat": 63.188725,
    "lon": 11.176271,
    "county": "Trøndelag"
  },
  {
    "id": "Q37733792",
    "name": "Klokkerelva",
    "length": 39.8,
    "lat": 69.73582,
    "lon": 29.25591,
    "county": "Finnmark"
  },
  {
    "id": "Q56407118",
    "name": "Julelva",
    "length": 39.1,
    "lat": 70.43387,
    "lon": 28.50451,
    "county": "Finnmark"
  },
  {
    "id": "Q25426299",
    "name": "Kongsfjordelva",
    "length": 38.5,
    "lat": 70.5277,
    "lon": 29.1133,
    "county": "Finnmark"
  },
  {
    "id": "Q35235933",
    "name": "Bergebyelva",
    "length": 38.2,
    "lat": 70.37238,
    "lon": 29.17107,
    "county": "Finnmark"
  },
  {
    "id": "Q753855",
    "name": "Nitelva",
    "length": 37,
    "photo": "https://commons.wikimedia.org/wiki/Special:FilePath/Nitelva.jpg?width=1024",
    "lat": 59.93333333,
    "lon": 11.06666667,
    "county": "Akershus"
  },
  {
    "id": "Q38952119",
    "name": "Važžejohka",
    "length": 36.9,
    "lat": 70.161,
    "lon": 26.56436,
    "county": "Finnmark"
  },
  {
    "id": "Q21447843",
    "name": "Friarfjordelva",
    "length": 36.8,
    "lat": 70.4604,
    "lon": 26.9135,
    "county": "Finnmark"
  },
  {
    "id": "Q24331891",
    "name": "Harrijoki",
    "length": 36.6,
    "lat": 69.70754,
    "lon": 28.77389,
    "county": "Finnmark"
  },
  {
    "id": "Q38951789",
    "name": "Lavnnjosjohka",
    "length": 36.1,
    "lat": 70.2529,
    "lon": 26.9806,
    "county": "Finnmark"
  },
  {
    "id": "Q35422028",
    "name": "Leavvajohka",
    "length": 35.9,
    "lat": 69.96082,
    "lon": 25.89393,
    "county": "Finnmark"
  },
  {
    "id": "Q55583194",
    "name": "Ciikojohka",
    "length": 35.5,
    "lat": 70.19589,
    "lon": 27.90436,
    "county": "Finnmark"
  },
  {
    "id": "Q60047355",
    "name": "Dunkrattelva",
    "length": 35.2,
    "lat": 70.289,
    "lon": 27.391,
    "county": "Finnmark"
  },
  {
    "id": "Q60660379",
    "name": "Gurtejohka",
    "length": 34.5,
    "lat": 70.29392,
    "lon": 27.31359,
    "county": "Finnmark"
  },
  {
    "id": "Q65271465",
    "name": "Ástejohka",
    "length": 33.9,
    "lat": 69.8979,
    "lon": 25.79516,
    "county": "Finnmark"
  },
  {
    "id": "Q131288395",
    "name": "Vesleflisa",
    "length": 33.6,
    "lat": 61.0411576,
    "lon": 12.0365028,
    "county": "Innlandet"
  },
  {
    "id": "Q35333266",
    "name": "Reppenelva",
    "length": 33.5,
    "lat": 70.06591,
    "lon": 28.59233,
    "county": "Finnmark"
  },
  {
    "id": "Q101156417",
    "name": "Veidneselva",
    "length": 33.4,
    "lat": 70.6597,
    "lon": 26.6011,
    "county": "Finnmark"
  },
  {
    "id": "Q17769495",
    "name": "Ellenelva",
    "length": 32.9,
    "lat": 69.21344,
    "lon": 29.15959,
    "county": "Finnmark"
  },
  {
    "id": "Q60640162",
    "name": "Deavkkehanjohka",
    "length": 32.8,
    "lat": 70.03253,
    "lon": 26.95116,
    "county": "Finnmark"
  },
  {
    "id": "Q35409435",
    "name": "Storelva",
    "length": 32.6,
    "lat": 70.10216,
    "lon": 30.15283,
    "county": "Finnmark"
  },
  {
    "id": "Q37733672",
    "name": "Førstevasselva",
    "length": 32.3,
    "lat": 69.83869,
    "lon": 28.94998,
    "county": "Finnmark"
  },
  {
    "id": "Q55564790",
    "name": "Ássuorgi",
    "length": 32.1,
    "lat": 69.0475,
    "lon": 25.747777777778,
    "county": "Finnmark"
  },
  {
    "id": "Q101416357",
    "name": "Lille-Porsangerelva",
    "length": 31.6,
    "lat": 70.62873,
    "lon": 26.24353,
    "county": "Finnmark"
  },
  {
    "id": "Q101168129",
    "name": "Cáskinjohka",
    "length": 31.5,
    "lat": 68.93822,
    "lon": 25.54826,
    "county": "Finnmark"
  },
  {
    "id": "Q6472011",
    "name": "Borsi",
    "length": 31.4,
    "lat": 70.0358,
    "lon": 26.2466,
    "county": "Finnmark"
  },
  {
    "id": "Q40440328",
    "name": "Tverrelva",
    "length": 31,
    "lat": 70.36684,
    "lon": 30.14282,
    "county": "Finnmark"
  },
  {
    "id": "Q576337",
    "name": "Vorma",
    "length": 30,
    "photo": "https://commons.wikimedia.org/wiki/Special:FilePath/Vorma%20in%20Norway.jpg?width=1024",
    "lat": 60.395278,
    "lon": 11.230833,
    "county": "Akershus"
  },
  {
    "id": "Q499668",
    "name": "Nidelva",
    "length": 30,
    "photo": "https://commons.wikimedia.org/wiki/Special:FilePath/Trondheim%20Norwegen.JPG?width=1024",
    "lat": 63.257738,
    "lon": 10.527992,
    "county": "Trøndelag"
  },
  {
    "id": "Q107706693",
    "name": "Flena",
    "length": 30,
    "lat": 61.59704,
    "lon": 11.34804,
    "county": "Innlandet"
  },
  {
    "id": "Q12000494",
    "name": "Sima",
    "length": 29.64,
    "lat": 60.565583333333,
    "lon": 7.3300833333333,
    "county": "Vestland"
  },
  {
    "id": "Q101124833",
    "name": "Njuolasjohka",
    "length": 29.2,
    "lat": 68.67682,
    "lon": 24.97084,
    "county": "Finnmark"
  },
  {
    "id": "Q38952048",
    "name": "Gáissavuolesjohka",
    "length": 29.1,
    "lat": 70.12169,
    "lon": 26.81911,
    "county": "Finnmark"
  },
  {
    "id": "Q40717684",
    "name": "Skallelva",
    "length": 28.9,
    "lat": 70.25533,
    "lon": 29.91156,
    "county": "Finnmark"
  },
  {
    "id": "Q101114973",
    "name": "Iškorasjohka",
    "length": 28.8,
    "lat": 69.2478,
    "lon": 25.62918,
    "county": "Finnmark"
  },
  {
    "id": "Q67188065",
    "name": "Vuonjaljohka",
    "length": 28.7,
    "lat": 70.25974,
    "lon": 26.30949,
    "county": "Finnmark"
  },
  {
    "id": "Q35406097",
    "name": "Luoppaljohka",
    "length": 28.7,
    "lat": 70.28824,
    "lon": 26.30443,
    "county": "Finnmark"
  },
  {
    "id": "Q101414694",
    "name": "Davit Ássuorgi",
    "length": 28.4,
    "lat": 68.99457,
    "lon": 25.29755,
    "county": "Finnmark"
  },
  {
    "id": "Q61080502",
    "name": "Gulbojok",
    "length": 28.2,
    "lat": 70.36375,
    "lon": 28.18416,
    "county": "Finnmark"
  },
  {
    "id": "Q65926197",
    "name": "Sandfjordelva",
    "length": 27.8,
    "lat": 70.84256,
    "lon": 27.91438,
    "county": "Finnmark"
  },
  {
    "id": "Q56405957",
    "name": "Trollfjordelva",
    "length": 27.6,
    "lat": 70.67942,
    "lon": 28.6274,
    "county": "Finnmark"
  },
  {
    "id": "Q131294923",
    "name": "Tverrena",
    "length": 27.5,
    "lat": 61.3653162,
    "lon": 11.9234776,
    "county": "Innlandet"
  }
]