[
  {
    "id": "Q214535",
    "name": "Glomma",
    "length": 604,
    "photo": "https://commons.wikimedia.org/wiki/Special:FilePath/Fetssund%20Lenser.jpg?width=1024",
    "lat": 59.176515,
    "lon": 10.956667,
    "county": "Østfold"
  },
  {
    "id": "Q1338024",
    "name": "Klarälven",
    "length": 460,
    "photo": "https://commons.wikimedia.org/wiki/Special:FilePath/Klar%C3%A4lven%20vid%20Stackerud%20-%20KMB%20-%2016000300030413.jpg?width=1024",
    "lat": 59.388611111111,
    "lon": 13.498333333333
  },
  {
    "id": "Q524612",
    "name": "Pasvikelva",
    "length": 385.3,
    "photo": "https://commons.wikimedia.org/wiki/Special:FilePath/Harefossen2.jpg?width=1024",
    "lat": 69.68135,
    "lon": 30.11035,
    "county": "Finnmark"
  },
  {
    "id": "Q829866",
    "name": "Tana",
    "length": 369.6,
    "photo": "https://commons.wikimedia.org/wiki/Special:FilePath/Tenojokiriver3.jpg?width=1024",
    "lat": 70.5,
    "lon": 28.3959,
    "county": "Finnmark"
  },
  {
    "id": "Q1420630",
    "name": "Numedalslågen",
    "length": 358.3,
    "photo": "https://commons.wikimedia.org/wiki/Special:FilePath/L%C3%A5genfoss%20bei%20Kongsberg%202.jpg?width=1024",
    "lat": 59.0375,
    "lon": 10.0556,
    "county": "Buskerud"
  },
  {
    "id": "Q20113109",
    "name": "Sævareidelva",
    "length": 250,
    "lat": 60.18977,
    "lon": 5.76234,
    "county": "Vestland"
  },
  {
    "id": "Q642694",
    "name": "Otra",
    "length": 245,
    "photo": "https://commons.wikimedia.org/wiki/Special:FilePath/Otra.jpg?width=1024",
    "lat": 59.619961,
    "lon": 7.427355,
    "county": "Agder"
  },
  {
    "id": "Q433744",
    "name": "Altaelva",
    "length": 229,
    "photo": "https://commons.wikimedia.org/wiki/Special:FilePath/Altaelva%20canyon.JPG?width=1024",
    "lat": 69.900944444444,
    "lon": 23.284,
    "county": "Finnmark"
  },
  {
    "id": "Q1518561",
    "name": "Namsen",
    "length": 229,
    "photo": "https://commons.wikimedia.org/wiki/Special:FilePath/Namsen%20kvatningen.JPG?width=1024",
    "lat": 64.9992,
    "lon": 13.7422,
    "county": "Trøndelag"
  },
  {
    "id": "Q1538332",
    "name": "Hallingdalselve",
    "length": 220,
    "photo": "https://commons.wikimedia.org/wiki/Special:FilePath/Hallingdalselva%2C%20Nesbyen%2001.jpg?width=1024",
    "lat": 60.383333333333,
    "lon": 9.5833333333333,
    "county": "Buskerud"
  },
  {
    "id": "Q792016",
    "name": "Begna",
    "length": 213,
    "photo": "https://commons.wikimedia.org/wiki/Special:FilePath/Smedlund%2C%20S%C3%B8r-Aurdal.JPG?width=1024",
    "lat": 60.166666666667,
    "lon": 10.266666666667,
    "county": "Buskerud"
  },
  {
    "id": "Q1393243",
    "name": "Nidelva",
    "length": 210,
    "photo": "https://commons.wikimedia.org/wiki/Special:FilePath/Nidelva%20ved%20Blakstad.JPG?width=1024",
    "lat": 58.4165,
    "lon": 8.7403,
    "county": "Telemark"
  },
  {
    "id": "Q927499",
    "name": "Lågen",
    "length": 204,
    "photo": "https://commons.wikimedia.org/wiki/Special:FilePath/L%C3%A5gendeltaet.jpg?width=1024",
    "lat": 61.133333333333,
    "lon": 10.416666666667,
    "county": "Innlandet"
  },
  {
    "id": "Q497783",
    "name": "Orkla",
    "length": 179,
    "photo": "https://commons.wikimedia.org/wiki/Special:FilePath/Orkanger%2003.jpg?width=1024",
    "lat": 63.306111111111,
    "lon": 9.8466944444444,
    "county": "Innlandet"
  },
  {
    "id": "Q1728986",
    "name": "Karasjohka",
    "length": 166,
    "photo": "https://commons.wikimedia.org/wiki/Special:FilePath/SUC50562.JPG?width=1024",
    "lat": 69.43555556,
    "lon": 25.80444444,
    "county": "Finnmark"
  },
  {
    "id": "Q1364212",
    "name": "Rena",
    "length": 165,
    "photo": "https://commons.wikimedia.org/wiki/Special:FilePath/Rena%20I.jpg?width=1024",
    "lat": 61.135555555556,
    "lon": 11.386111111111,
    "county": "Innlandet"
  },
  {
    "id": "Q180550",
    "name": "Vefsna",
    "length": 163,
    "photo": "https://commons.wikimedia.org/wiki/Special:FilePath/Laksforsen.jpg?width=1024",
    "lat": 65.84527778,
    "lon": 13.1825,
    "county": "Nordland"
  },
  {
    "id": "Q486437",
    "name": "Anárjohka",
    "length": 155.7,
    "photo": "https://commons.wikimedia.org/wiki/Special:FilePath/Anarjohka%20river%2C%20Norway-Finland%20border.jpg?width=1024",
    "lat": 68.7251,
    "lon": 24.35275,
    "county": "Finnmark"
  },
  {
    "id": "Q1146090",
    "name": "Sira",
    "length": 152,
    "photo": "https://commons.wikimedia.org/wiki/Special:FilePath/Aana-Sira.jpg?width=1024",
    "lat": 58.276766,
    "lon": 6.375647,
    "county": "Rogaland"
  },
  {
    "id": "Q82824",
    "name": "Kvina",
    "length": 151,
    "photo": "https://commons.wikimedia.org/wiki/Special:FilePath/Utsikten.jpg?width=1024",
    "lat": 58.2722,
    "lon": 6.8884,
    "county": "Agder"
  },
  {
    "id": "Q1259332",
    "name": "Driva",
    "length": 150,
    "photo": "https://commons.wikimedia.org/wiki/Special:FilePath/Gikling.JPG?width=1024",
    "lat": 62.6674,
    "lon": 8.5794,
    "county": "Møre og Romsdal"
  },
  {
    "id": "Q1226044",
    "name": "Neidenelva",
    "length": 149.2,
    "photo": "https://commons.wikimedia.org/wiki/Special:FilePath/Neiden%20panorama.jpg?width=1024",
    "lat": 69.70222,
    "lon": 29.53889,
    "county": "Finnmark"
  },
  {
    "id": "Q1496041",
    "name": "Gaula",
    "length": 145,
    "photo": "https://commons.wikimedia.org/wiki/Special:FilePath/Gaula%20River%20at%20Kots%C3%B8y.jpg?width=1024",
    "lat": 62.879074,
    "lon": 11.703601,
    "county": "Trøndelag"
  },
  {
    "id": "Q1581016",
    "name": "Tovdalselva",
    "length": 143,
    "photo": "https://commons.wikimedia.org/wiki/Special:FilePath/Tovdalselva%20Kristiansand%20foss%20Birkenes%20drangsholtmyra%20IMG%202518.jpg?width=1024",
    "lat": 58.8086,
    "lon": 8.1589,
    "county": "Agder"
  },
  {
    "id": "Q1957603",
    "name": "Målselva",
    "length": 140,
    "photo": "https://commons.wikimedia.org/wiki/Special:FilePath/M%C3%A5lselva%20river%282%29.jpg?width=1024",
    "lat": 69.233333333333,
    "lon": 18.5,
    "county": "Troms"
  },
  {
    "id": "Q1808066",
    "name": "Otta",
    "length": 135,
    "photo": "https://commons.wikimedia.org/wiki/Special:FilePath/Ottariver.jpg?width=1024",
    "lat": 62.0243,
    "lon": 7.3228,
    "county": "Innlandet"
  },
  {
    "id": "Q136652337",
    "name": "Råna",
    "length": 133,
    "lat": 58.91393,
    "lon": 9.32148,
    "county": "Telemark"
  },
  {
    "id": "Q1861845",
    "name": "Ranelva",
    "length": 130,
    "photo": "https://commons.wikimedia.org/wiki/Special:FilePath/RanelvaSelfors01.JPG?width=1024",
    "lat": 66.33415,
    "lon": 14.130135,
    "county": "Nordland"
  },
  {
    "id": "Q2527201",
    "name": "Vinstra",
    "length": 128,
    "photo": "https://commons.wikimedia.org/wiki/Special:FilePath/Olstappen%20dam%2C%20Norway.jpg?width=1024",
    "lat": 61.590481,
    "lon": 9.752162,
    "county": "Innlandet"
  },
  {
    "id": "Q1603703",
    "name": "Reisaelva",
    "length": 127,
    "photo": "https://commons.wikimedia.org/wiki/Special:FilePath/Reisaelva%20fra%20Jiert%C3%A1%2020170727%20152807.jpg?width=1024",
    "lat": 69.786111,
    "lon": 21.008056,
    "county": "Troms"
  },
  {
    "id": "Q1428975",
    "name": "Flisa",
    "length": 126.8,
    "photo": "https://commons.wikimedia.org/wiki/Special:FilePath/Flisa%20bru%201.jpg?width=1024",
    "lat": 60.588846,
    "lon": 12.019061,
    "county": "Innlandet"
  },
  {
    "id": "Q138631",
    "name": "Mandalselva",
    "length": 115,
    "photo": "https://commons.wikimedia.org/wiki/Special:FilePath/Mandalselva%20sett%20fra%20piren.JPG?width=1024",
    "lat": 58.019494,
    "lon": 7.455761,
    "county": "Agder"
  },
  {
    "id": "Q661191",
    "name": "Folla",
    "length": 106,
    "photo": "https://commons.wikimedia.org/wiki/Special:FilePath/Grimsmoen%202010-11-16.jpg?width=1024",
    "lat": 62.1806,
    "lon": 9.4849,
    "county": "Innlandet"
  },
  {
    "id": "Q1801202",
    "name": "Lakselva",
    "length": 103.1,
    "photo": "https://commons.wikimedia.org/wiki/Special:FilePath/Lakselva%20near%20Lakselv.jpg?width=1024",
    "lat": 69.79616,
    "lon": 25.31609,
    "county": "Finnmark"
  },
  {
    "id": "Q1748443",
    "name": "Sjoa",
    "length": 98,
    "photo": "https://commons.wikimedia.org/wiki/Special:FilePath/Ridderspranget.JPG?width=1024",
    "lat": 61.683333333333,
    "lon": 9.55,
    "county": "Innlandet"
  },
  {
    "id": "Q757530",
    "name": "Atna",
    "length": 97,
    "lat": 61.733333333333,
    "lon": 10.816666666667,
    "county": "Innlandet"
  },
  {
    "id": "Q829748",
    "name": "Simoa",
    "length": 88,
    "photo": "https://commons.wikimedia.org/wiki/Special:FilePath/Haugfossen.JPEG?width=1024",
    "lat": 59.99633,
    "lon": 9.72894,
    "county": "Buskerud"
  },
  {
    "id": "Q555450",
    "name": "Akerselva",
    "length": 82,
    "photo": "https://commons.wikimedia.org/wiki/Special:FilePath/Akerselva%20M%C3%B8llerfossene%2018jun2005.jpg?width=1024",
    "lat": 59.907514,
    "lon": 10.755474,
    "county": "Oslo"
  },
  {
    "id": "Q1559602",
    "name": "Ljøra",
    "length": 80,
    "lat": 61.305138888889,
    "lon": 13.0775,
    "county": "Innlandet"
  },
  {
    "id": "Q1860746",
    "name": "Nea",
    "length": 80,
    "photo": "https://commons.wikimedia.org/wiki/Special:FilePath/Nea%20I.jpg?width=1024",
    "lat": 63.230117,
    "lon": 11.01408,
    "county": "Trøndelag"
  },
  {
    "id": "Q2215369",
    "name": "Saltelva",
    "length": 78.1,
    "lat": 67.106407,
    "lon": 15.424447,
    "county": "Nordland"
  },
  {
    "id": "Q101117929",
    "name": "Goššjohka",
    "length": 77.5,
    "lat": 69.03919,
    "lon": 25.25236,
    "county": "Finnmark"
  },
  {
    "id": "Q1020247",
    "name": "Børselva",
    "length": 74.5,
    "photo": "https://commons.wikimedia.org/wiki/Special:FilePath/Borselv9.jpg?width=1024",
    "lat": 70.31703,
    "lon": 25.56975,
    "county": "Finnmark"
  },
  {
    "id": "Q1773519",
    "name": "Skibotnelva",
    "length": 73.7,
    "photo": "https://commons.wikimedia.org/wiki/Special:FilePath/Storfjord%20Skibotndalen%20lub%202025-07-18%20img02.jpg?width=1024",
    "lat": 69.384623,
    "lon": 20.256357,
    "county": "Troms"
  },
  {
    "id": "Q11961254",
    "name": "Bjoreio",
    "length": 72,
    "photo": "https://commons.wikimedia.org/wiki/Special:FilePath/V%C3%B8ringfossen.jpg?width=1024",
    "lat": 60.2865568,
    "lon": 7.5624561,
    "county": "Vestland"
  },
  {
    "id": "Q1334183",
    "name": "Skjoma",
    "length": 71,
    "lat": 68.251753,
    "lon": 17.388253,
    "county": "Nordland"
  },
  {
    "id": "Q59260988",
    "name": "Masjokelva",
    "length": 70.7,
    "lat": 70.36557,
    "lon": 27.43005,
    "county": "Finnmark"
  },
  {
    "id": "Q185819",
    "name": "Barduelva",
    "length": 70,
    "photo": "https://commons.wikimedia.org/wiki/Special:FilePath/Bardu.jpg?width=1024",
    "lat": 69.045277777778,
    "lon": 18.619722222222,
    "county": "Troms"
  },
  {
    "id": "Q1785090",
    "name": "Gaula",
    "length": 70,
    "photo": "https://commons.wikimedia.org/wiki/Special:FilePath/Gaula-Gaular-Norway.jpg?width=1024",
    "lat": 61.3664,
    "lon": 5.6968,
    "county": "Vestland"
  },
  {
    "id": "Q11889031",
    "name": "Polmakelva",
    "length": 69.2,
    "lat": 70.02468,
    "lon": 28.04301,
    "county": "Finnmark"
  },
  {
    "id": "Q494838",
    "name": "Rauma",
    "length": 68,
    "photo": "https://commons.wikimedia.org/wiki/Special:FilePath/Slettafossen.jpg?width=1024",
    "lat": 62.2293,
    "lon": 8.3602,
    "county": "Møre og Romsdal"
  },
  {
    "id": "Q17450111",
    "name": "Signaldalelva",
    "length": 64.96,
    "photo": "https://commons.wikimedia.org/wiki/Special:FilePath/Otertinden%20and%20Signaldalelva%20in%20Storfjord%2C%20Troms%20og%20Finnmark%2C%20Norway%2C%202018%20September.jpg?width=1024",
    "county": "Troms"
  },
  {
    "id": "Q12008730",
    "name": "Uvdalselvi",
    "length": 64.9171642,
    "photo": "https://commons.wikimedia.org/wiki/Special:FilePath/Uvdalselva%20ved%20St%C3%B6lo%20IMG%201527.JPG?width=1024",
    "lat": 60.27144,
    "lon": 8.68384,
    "county": "Buskerud"
  },
  {
    "id": "Q12379378",
    "name": "Adamsfjordelva",
    "length": 64.1,
    "photo": "https://commons.wikimedia.org/wiki/Special:FilePath/Norwegen-Adamsfjordelva%20-P1290549.jpg?width=1024",
    "lat": 70.38172,
    "lon": 26.6303,
    "county": "Finnmark"
  },
  {
    "id": "Q2145142",
    "name": "Repparfjordelva",
    "length": 61.8,
    "photo": "https://commons.wikimedia.org/wiki/Special:FilePath/Hammerfest%20Repparfjordelva%20lub%202025-07-16%20img03.jpg?width=1024",
    "lat": 70.448846,
    "lon": 24.32303,
    "county": "Finnmark"
  },
  {
    "id": "Q65028830",
    "name": "Váljohka",
    "length": 60.2,
    "lat": 69.69723,
    "lon": 25.94135,
    "county": "Finnmark"
  },
  {
    "id": "Q291311",
    "name": "Stabburselva",
    "length": 60,
    "lat": 69.837,
    "lon": 24.2319,
    "county": "Finnmark"
  },
  {
    "id": "Q1144503",
    "name": "Jakobselva",
    "length": 59.2,
    "photo": "https://commons.wikimedia.org/wiki/Special:FilePath/Jakobselva%2001.jpg?width=1024",
    "lat": 70.1071,
    "lon": 29.327,
    "county": "Finnmark"
  },
  {
    "id": "Q24327217",
    "name": "Skiehččanjohka",
    "length": 58.2,
    "lat": 68.6914,
    "lon": 25.11356,
    "county": "Finnmark"
  },
  {
    "id": "Q105581013",
    "name": "Ulla",
    "length": 58.2,
    "lat": 59.43135,
    "lon": 6.81807,
    "county": "Rogaland"
  },
  {
    "id": "Q25439066",
    "name": "Storelva",
    "length": 56.1,
    "lat": 70.359,
    "lon": 26.4799,
    "county": "Finnmark"
  },
  {
    "id": "Q814631",
    "name": "Beiarelva",
    "length": 56,
    "photo": "https://commons.wikimedia.org/wiki/Special:FilePath/Beiarelva%20ved%20Segelfjell.jpg?width=1024",
    "lat": 67.034543,
    "lon": 14.585323,
    "county": "Nordland"
  },
  {
    "id": "Q11250398",
    "name": "Songdalselva",
    "length": 55.4,
    "photo": "https://commons.wikimedia.org/wiki/Special:FilePath/Songdalselva1.JPG?width=1024",
    "lat": 58.0762,
    "lon": 7.8155,
    "county": "Agder"
  },
  {
    "id": "Q502866",
    "name": "Audna",
    "length": 55,
    "photo": "https://commons.wikimedia.org/wiki/Special:FilePath/Melhusfossen010916.jpg?width=1024",
    "lat": 58.0578,
    "lon": 7.2791,
    "county": "Agder"
  },
  {
    "id": "Q1144836",
    "name": "Komagelva",
    "length": 52.6,
    "lat": 70.2414,
    "lon": 30.52351,
    "county": "Finnmark"
  },
  {
    "id": "Q2503760",
    "name": "Munkelva",
    "length": 51.8,
    "lat": 69.64403,
    "lon": 29.43719,
    "county": "Finnmark"
  },
  {
    "id": "Q19369136",
    "name": "Sandfjordelva",
    "length": 51.3,
    "photo": "https://commons.wikimedia.org/wiki/Special:FilePath/Sandfjordelva%20in%20B%C3%A5tsfjord.jpg?width=1024",
    "lat": 70.3675,
    "lon": 29.6943,
    "county": "Finnmark"
  },
  {
    "id": "Q35406339",
    "name": "Sukielva",
    "length": 51.2,
    "lat": 70.2645,
    "lon": 28.18,
    "county": "Finnmark"
  },
  {
    "id": "Q2203089",
    "name": "Røssåga",
    "length": 50,
    "lat": 66.160948,
    "lon": 13.802576,
    "county": "Nordland"
  },
  {
    "id": "Q1515239",
    "name": "Stjørdalselva",
    "length": 50,
    "photo": "https://commons.wikimedia.org/wiki/Special:FilePath/Stj%C3%B8rdalen.JPG?width=1024",
    "lat": 63.45059,
    "lon": 10.92985,
    "county": "Trøndelag"
  },
  {
    "id": "Q430480",
    "name": "Jakobselva",
    "length": 49.6,
    "photo": "https://commons.wikimedia.org/wiki/Special:FilePath/N886-Jakobselv-2012-07-06-13-02-032.jpg?width=1024",
    "lat": 69.70831,
    "lon": 30.86909,
    "county": "Finnmark"
  },
  {
    "id": "Q41245845",
    "name": "Syltefjordelva",
    "length": 49.3,
    "lat": 70.5314,
    "lon": 30.0128,
    "county": "Finnmark"
  },
  {
    "id": "Q60291066",
    "name": "Lákšjohka",
    "length": 48.8,
    "lat": 70.29392,
    "lon": 27.31358,
    "county": "Finnmark"
  },
  {
    "id": "Q12003390",
    "name": "Stordalselva",
    "length": 48.5,
    "photo": "https://commons.wikimedia.org/wiki/Special:FilePath/PICT0628%20Stovelfossen%20laks.jpg?width=1024",
    "lat": 63.95,
    "lon": 10.233333333333,
    "county": "Trøndelag"
  },
  {
    "id": "Q537889",
    "name": "Drammenselva",
    "length": 48,
    "photo": "https://commons.wikimedia.org/wiki/Special:FilePath/Drammen%20aerial.jpg?width=1024",
    "lat": 60.010833333333,
    "lon": 10.042777777778,
    "county": "Buskerud"
  },
  {
    "id": "Q37343662",
    "name": "Vesterelva",
    "length": 46.7,
    "lat": 70.16197,
    "lon": 28.58075,
    "county": "Finnmark"
  }
]