[
  {
    "id": "Q214535",
    "name": "Glomma",
    "length": 604,
    "photo": "https://commons.wikimedia.org/wiki/Special:FilePath/Utsiktspunkt%20over%20Borregaard%20med%20Glomma.jpg?width=1024",
    "lat": 59.176515,
    "lon": 10.956667,
    "county": "Østfold"
  },
  {
    "id": "Q1338024",
    "name": "Klarälven",
    "length": 460,
    "photo": "https://commons.wikimedia.org/wiki/Special:FilePath/Klar%C3%A4lven%20-%20panoramio.jpg?width=1024",
    "lat": 59.388611111111,
    "lon": 13.498333333333
  },
  {
    "id": "Q524612",
    "name": "Pasvikelva",
    "length": 385.3,
    "photo": "https://commons.wikimedia.org/wiki/Special:FilePath/Pasvikelvas%20utl%C3%B8p%20-%20panoramio.jpg?width=1024",
    "lat": 69.68135,
    "lon": 30.11035,
    "county": "Finnmark"
  },
  {
    "id": "Q829866",
    "name": "Tana",
    "length": 369.6,
    "photo": "https://commons.wikimedia.org/wiki/Special:FilePath/Kong%20Haakon%20i%20elveb%C3%A5t%20p%C3%A5%20Tanaelva%20-%20no-nb%20digifoto%2020160118%2000012%20bldsa%20pk%20kgl0071.jpg?width=1024",
    "lat": 70.5,
    "lon": 28.3959,
    "county": "Finnmark"
  },
  {
    "id": "Q1420630",
    "name": "Numedalslågen",
    "length": 358.3,
    "photo": "https://commons.wikimedia.org/wiki/Special:FilePath/Elektro%20kraftverk%20Numedalsl%C3%A5gen.JPG?width=1024",
    "lat": 59.0375,
    "lon": 10.0556,
    "county": "Buskerud"
  },
  {
    "id": "Q20113109",
    "name": "Sævareidelva",
    "length": 250,
    "lat": 60.18977,
    "lon": 5.76234,
    "county": "Vestland"
  },
  {
    "id": "Q642694",
    "name": "Otra",
    "length": 245,
    "photo": "https://commons.wikimedia.org/wiki/Special:FilePath/Otra%20-%20Kristiansand%2C%20Norway%202021-08-12%20%2801%29.jpg?width=1024",
    "lat": 59.619961,
    "lon": 7.427355,
    "county": "Agder"
  },
  {
    "id": "Q433744",
    "name": "Altaelva",
    "length": 229,
    "photo": "https://commons.wikimedia.org/wiki/Special:FilePath/Residential%20of%20Stenfossholmen%2C%20%C3%98vre%20Alta%20by%20Altaelva%20river%2C%20Alta%2C%20Troms%20og%20Finnmark%2C%20Norway%2C%202023%20September.jpg?width=1024",
    "lat": 69.900944444444,
    "lon": 23.284,
    "county": "Finnmark"
  },
  {
    "id": "Q1518561",
    "name": "Namsen",
    "length": 229,
    "photo": "https://commons.wikimedia.org/wiki/Special:FilePath/Norwegen%201998%20%28506%29%20Namsen%20%2849473399916%29.jpg?width=1024",
    "lat": 64.9992,
    "lon": 13.7422,
    "county": "Trøndelag"
  },
  {
    "id": "Q1538332",
    "name": "Hallingdalselve",
    "length": 220,
    "photo": "https://commons.wikimedia.org/wiki/Special:FilePath/Hallingdalselven%20med%20Ramfoss%20dammen.jpg?width=1024",
    "lat": 60.383333333333,
    "lon": 9.5833333333333,
    "county": "Buskerud"
  },
  {
    "id": "Q792016",
    "name": "Begna",
    "length": 213,
    "photo": "https://commons.wikimedia.org/wiki/Special:FilePath/Bergsundveien%2041%20ved%20Begna%2C%20Ringerike.jpg?width=1024",
    "lat": 60.166666666667,
    "lon": 10.266666666667,
    "county": "Buskerud"
  },
  {
    "id": "Q1393243",
    "name": "Nidelva",
    "length": 210,
    "photo": "https://commons.wikimedia.org/wiki/Special:FilePath/Nidelva%20ved%20Blakstad.JPG?width=1024",
    "lat": 58.4165,
    "lon": 8.7403,
    "county": "Telemark"
  },
  {
    "id": "Q927499",
    "name": "Lågen",
    "length": 204,
    "photo": "https://commons.wikimedia.org/wiki/Special:FilePath/Norwegen%201998%20%28778%29%20Gudbrandsdalsl%C3%A5gen%20%2850596661812%29.jpg?width=1024",
    "lat": 61.133333333333,
    "lon": 10.416666666667,
    "county": "Innlandet"
  },
  {
    "id": "Q497783",
    "name": "Orkla",
    "length": 179,
    "photo": "https://commons.wikimedia.org/wiki/Special:FilePath/Kl%C3%B8ftbrua%20Kl%C3%B8ft%20bru%20road%20bridge%20Trondheimsveien%20E6%20Byna%20and%20Orkla%20rivers%20spring%20floods%20Ulsberg%20Rennebu%20kommune%20Tr%C3%B8ndelag%20Norway%20Distorted%20panorama%202019-04-25%207762.jpg?width=1024",
    "lat": 63.306111111111,
    "lon": 9.8466944444444,
    "county": "Innlandet"
  },
  {
    "id": "Q1728986",
    "name": "Karasjohka",
    "length": 166,
    "photo": "https://commons.wikimedia.org/wiki/Special:FilePath/K%C3%A1r%C3%A1%C5%A1johka%20river%20from%20Karasjok%20bru%202022-09-13%2001.jpg?width=1024",
    "lat": 69.43555556,
    "lon": 25.80444444,
    "county": "Finnmark"
  },
  {
    "id": "Q1364212",
    "name": "Rena",
    "length": 165,
    "photo": "https://commons.wikimedia.org/wiki/Special:FilePath/Rena%20I.jpg?width=1024",
    "lat": 61.135555555556,
    "lon": 11.386111111111,
    "county": "Innlandet"
  },
  {
    "id": "Q180550",
    "name": "Vefsna",
    "length": 163,
    "photo": "https://commons.wikimedia.org/wiki/Special:FilePath/Norwegen%201998%20%28513%29%20Vefsna%20%2849525033982%29.jpg?width=1024",
    "lat": 65.84527778,
    "lon": 13.1825,
    "county": "Nordland"
  },
  {
    "id": "Q486437",
    "name": "Anárjohka",
    "length": 155.7,
    "photo": "https://commons.wikimedia.org/wiki/Special:FilePath/Anarjohka.jpg?width=1024",
    "lat": 68.7251,
    "lon": 24.35275,
    "county": "Finnmark"
  },
  {
    "id": "Q1146090",
    "name": "Sira",
    "length": 152,
    "photo": "https://commons.wikimedia.org/wiki/Special:FilePath/Aana-Sira.jpg?width=1024",
    "lat": 58.276766,
    "lon": 6.375647,
    "county": "Rogaland"
  },
  {
    "id": "Q82824",
    "name": "Kvina",
    "length": 151,
    "photo": "https://commons.wikimedia.org/wiki/Special:FilePath/062614%20Liknes%20%289199984191%29.jpg?width=1024",
    "lat": 58.2722,
    "lon": 6.8884,
    "county": "Agder"
  },
  {
    "id": "Q1259332",
    "name": "Driva",
    "length": 150,
    "photo": "https://commons.wikimedia.org/wiki/Special:FilePath/Driva%2C%20camping%20Vollan%20-%20panoramio%20%281%29.jpg?width=1024",
    "lat": 62.6674,
    "lon": 8.5794,
    "county": "Møre og Romsdal"
  },
  {
    "id": "Q1226044",
    "name": "Neidenelva",
    "length": 149.2,
    "photo": "https://commons.wikimedia.org/wiki/Special:FilePath/Chutes%20d%27eau%20sur%20la%20Neidenelva.jpg?width=1024",
    "lat": 69.70222,
    "lon": 29.53889,
    "county": "Finnmark"
  },
  {
    "id": "Q1496041",
    "name": "Gaula",
    "length": 145,
    "photo": "https://commons.wikimedia.org/wiki/Special:FilePath/Sv%C3%B8lgja%20Eggafossen%20Gaula%202014.JPG?width=1024",
    "lat": 62.879074,
    "lon": 11.703601,
    "county": "Trøndelag"
  },
  {
    "id": "Q1581016",
    "name": "Tovdalselva",
    "length": 143,
    "photo": "https://commons.wikimedia.org/wiki/Special:FilePath/Rjukanfossen%20Tovdalselva%20%C3%85mli%20100714.jpg?width=1024",
    "lat": 58.8086,
    "lon": 8.1589,
    "county": "Agder"
  },
  {
    "id": "Q1957603",
    "name": "Målselva",
    "length": 140,
    "photo": "https://commons.wikimedia.org/wiki/Special:FilePath/Malselva%20valley.jpg?width=1024",
    "lat": 69.233333333333,
    "lon": 18.5,
    "county": "Troms"
  },
  {
    "id": "Q1808066",
    "name": "Otta",
    "length": 135,
    "photo": "https://commons.wikimedia.org/wiki/Special:FilePath/Otta%20-%20no-nb%20digifoto%2020150219%2000233%20NB%20MIT%20FNR%2016508%20A.jpg?width=1024",
    "lat": 62.0243,
    "lon": 7.3228,
    "county": "Innlandet"
  },
  {
    "id": "Q136652337",
    "name": "Råna",
    "length": 133,
    "lat": 58.91393,
    "lon": 9.32148,
    "county": "Telemark"
  },
  {
    "id": "Q1861845",
    "name": "Ranelva",
    "length": 130,
    "photo": "https://commons.wikimedia.org/wiki/Special:FilePath/Bru%20over%20Ranelva%2020070906%20DSCN4381.jpg?width=1024",
    "lat": 66.33415,
    "lon": 14.130135,
    "county": "Nordland"
  },
  {
    "id": "Q2527201",
    "name": "Vinstra",
    "length": 128,
    "photo": "https://commons.wikimedia.org/wiki/Special:FilePath/Vinstra%2C%20Oppland%2C%20Norway%20%286851773521%29.jpg?width=1024",
    "lat": 61.590481,
    "lon": 9.752162,
    "county": "Innlandet"
  },
  {
    "id": "Q1603703",
    "name": "Reisaelva",
    "length": 127,
    "photo": "https://commons.wikimedia.org/wiki/Special:FilePath/The%20Reisadalen%20looking%20downstream.JPG?width=1024",
    "lat": 69.786111,
    "lon": 21.008056,
    "county": "Troms"
  },
  {
    "id": "Q1428975",
    "name": "Flisa",
    "length": 126.8,
    "photo": "https://commons.wikimedia.org/wiki/Special:FilePath/Flisa%20bru%201.jpg?width=1024",
    "lat": 60.588846,
    "lon": 12.019061,
    "county": "Innlandet"
  },
  {
    "id": "Q138631",
    "name": "Mandalselva",
    "length": 115,
    "photo": "https://commons.wikimedia.org/wiki/Special:FilePath/Mandal%20sentrum%20og%20Mandalselva.jpg?width=1024",
    "lat": 58.019494,
    "lon": 7.455761,
    "county": "Agder"
  },
  {
    "id": "Q661191",
    "name": "Folla",
    "length": 106,
    "photo": "https://commons.wikimedia.org/wiki/Special:FilePath/Folla-2010-11-11.jpg?width=1024",
    "lat": 62.1806,
    "lon": 9.4849,
    "county": "Innlandet"
  },
  {
    "id": "Q1801202",
    "name": "Lakselva",
    "length": 103.1,
    "photo": "https://commons.wikimedia.org/wiki/Special:FilePath/Fishing%20in%20lakselv.JPG?width=1024",
    "lat": 69.79616,
    "lon": 25.31609,
    "county": "Finnmark"
  },
  {
    "id": "Q1748443",
    "name": "Sjoa",
    "length": 98,
    "photo": "https://commons.wikimedia.org/wiki/Special:FilePath/CN%20185%20Kvam%20-%20Sjoa.jpg?width=1024",
    "lat": 61.683333333333,
    "lon": 9.55,
    "county": "Innlandet"
  },
  {
    "id": "Q757530",
    "name": "Atna",
    "length": 97,
    "lat": 61.733333333333,
    "lon": 10.816666666667,
    "county": "Innlandet"
  },
  {
    "id": "Q829748",
    "name": "Simoa",
    "length": 88,
    "photo": "https://commons.wikimedia.org/wiki/Special:FilePath/Frits%20Thaulow%20-%20Winter%20at%20the%20River%20Simoa%20-%20Google%20Art%20Project.jpg?width=1024",
    "lat": 59.99633,
    "lon": 9.72894,
    "county": "Buskerud"
  },
  {
    "id": "Q555450",
    "name": "Akerselva",
    "length": 82,
    "photo": "https://commons.wikimedia.org/wiki/Special:FilePath/Akerselva%20from%20Anne%20Holsens%20bru%20Oslo%202022-08-17%2001.jpg?width=1024",
    "lat": 59.907514,
    "lon": 10.755474,
    "county": "Oslo"
  },
  {
    "id": "Q1559602",
    "name": "Ljøra",
    "length": 80,
    "lat": 61.305138888889,
    "lon": 13.0775,
    "county": "Innlandet"
  },
  {
    "id": "Q1860746",
    "name": "Nea",
    "length": 80,
    "photo": "https://commons.wikimedia.org/wiki/Special:FilePath/Nea%20III.jpg?width=1024",
    "lat": 63.230117,
    "lon": 11.01408,
    "county": "Trøndelag"
  },
  {
    "id": "Q2215369",
    "name": "Saltelva",
    "length": 78.1,
    "lat": 67.106407,
    "lon": 15.424447,
    "county": "Nordland"
  },
  {
    "id": "Q101117929",
    "name": "Goššjohka",
    "length": 77.5,
    "lat": 69.03919,
    "lon": 25.25236,
    "county": "Finnmark"
  },
  {
    "id": "Q1020247",
    "name": "Børselva",
    "length": 74.5,
    "photo": "https://commons.wikimedia.org/wiki/Special:FilePath/B%C3%B8rselva-20140718-RM-105739.jpg?width=1024",
    "lat": 70.31703,
    "lon": 25.56975,
    "county": "Finnmark"
  },
  {
    "id": "Q1773519",
    "name": "Skibotnelva",
    "length": 73.7,
    "photo": "https://commons.wikimedia.org/wiki/Special:FilePath/Skibotnelva.jpg?width=1024",
    "lat": 69.384623,
    "lon": 20.256357,
    "county": "Troms"
  },
  {
    "id": "Q11961254",
    "name": "Bjoreio",
    "length": 72,
    "photo": "https://commons.wikimedia.org/wiki/Special:FilePath/Bjoreio%20-%20Eidfjord%2C%20Norway%202021-07-24%20%2801%29.jpg?width=1024",
    "lat": 60.2865568,
    "lon": 7.5624561,
    "county": "Vestland"
  },
  {
    "id": "Q1334183",
    "name": "Skjoma",
    "length": 71,
    "lat": 68.251753,
    "lon": 17.388253,
    "county": "Nordland"
  },
  {
    "id": "Q59260988",
    "name": "Masjokelva",
    "length": 70.7,
    "lat": 70.36557,
    "lon": 27.43005,
    "county": "Finnmark"
  },
  {
    "id": "Q185819",
    "name": "Barduelva",
    "length": 70,
    "photo": "https://commons.wikimedia.org/wiki/Special:FilePath/Barduelva-Panorama-2011.jpg?width=1024",
    "lat": 69.045277777778,
    "lon": 18.619722222222,
    "county": "Troms"
  },
  {
    "id": "Q1785090",
    "name": "Gaula",
    "length": 70,
    "photo": "https://commons.wikimedia.org/wiki/Special:FilePath/Viksdalen%2C%20Gaular%20-%20no-nb%20digifoto%2020150121%2000069%20NB%20MIT%20FNR%2019631.jpg?width=1024",
    "lat": 61.3664,
    "lon": 5.6968,
    "county": "Vestland"
  },
  {
    "id": "Q11889031",
    "name": "Polmakelva",
    "length": 69.2,
    "lat": 70.02468,
    "lon": 28.04301,
    "county": "Finnmark"
  },
  {
    "id": "Q494838",
    "name": "Rauma",
    "length": 68,
    "photo": "https://commons.wikimedia.org/wiki/Special:FilePath/Rauma%2C%20Norway%20-%20panoramio%20%2899%29.jpg?width=1024",
    "lat": 62.2293,
    "lon": 8.3602,
    "county": "Møre og Romsdal"
  },
  {
    "id": "Q17450111",
    "name": "Signaldalelva",
    "length": 64.96,
    "photo": "https://commons.wikimedia.org/wiki/Special:FilePath/Otertinden%20and%20Signaldalelva%20in%20Storfjord%2C%20Troms%20og%20Finnmark%2C%20Norway%2C%202018%20September.jpg?width=1024",
    "county": "Troms"
  },
  {
    "id": "Q12008730",
    "name": "Uvdalselvi",
    "length": 64.9171642,
    "photo": "https://commons.wikimedia.org/wiki/Special:FilePath/Jernbanebrua%20over%20Uvdalselvi.jpg?width=1024",
    "lat": 60.27144,
    "lon": 8.68384,
    "county": "Buskerud"
  },
  {
    "id": "Q12379378",
    "name": "Adamsfjordelva",
    "length": 64.1,
    "photo": "https://commons.wikimedia.org/wiki/Special:FilePath/Norwegen-Adamsfjordelva-P1290550.jpg?width=1024",
    "lat": 70.38172,
    "lon": 26.6303,
    "county": "Finnmark"
  },
  {
    "id": "Q2145142",
    "name": "Repparfjordelva",
    "length": 61.8,
    "photo": "https://commons.wikimedia.org/wiki/Special:FilePath/Hammerfest%20Repparfjordelva%20lub%202025-07-16%20img01.jpg?width=1024",
    "lat": 70.448846,
    "lon": 24.32303,
    "county": "Finnmark"
  },
  {
    "id": "Q65028830",
    "name": "Váljohka",
    "length": 60.2,
    "lat": 69.69723,
    "lon": 25.94135,
    "county": "Finnmark"
  },
  {
    "id": "Q291311",
    "name": "Stabburselva",
    "length": 60,
    "lat": 69.837,
    "lon": 24.2319,
    "county": "Finnmark"
  },
  {
    "id": "Q1144503",
    "name": "Jakobselva",
    "length": 59.2,
    "photo": "https://commons.wikimedia.org/wiki/Special:FilePath/Jakobselva%2001.jpg?width=1024",
    "lat": 70.1071,
    "lon": 29.327,
    "county": "Finnmark"
  },
  {
    "id": "Q24327217",
    "name": "Skiehččanjohka",
    "length": 58.2,
    "lat": 68.6914,
    "lon": 25.11356,
    "county": "Finnmark"
  },
  {
    "id": "Q105581013",
    "name": "Ulla",
    "length": 58.2,
    "lat": 59.43135,
    "lon": 6.81807,
    "county": "Rogaland"
  },
  {
    "id": "Q25439066",
    "name": "Storelva",
    "length": 56.1,
    "lat": 70.359,
    "lon": 26.4799,
    "county": "Finnmark"
  },
  {
    "id": "Q814631",
    "name": "Beiarelva",
    "length": 56,
    "photo": "https://commons.wikimedia.org/wiki/Special:FilePath/Beiarelva%20lower%20part%20at%20Arstadberget.jpg?width=1024",
    "lat": 67.034543,
    "lon": 14.585323,
    "county": "Nordland"
  },
  {
    "id": "Q11250398",
    "name": "Songdalselva",
    "length": 55.4,
    "photo": "https://commons.wikimedia.org/wiki/Special:FilePath/Songdalselva%20ved%20Kirka%20-%20panoramio.jpg?width=1024",
    "lat": 58.0762,
    "lon": 7.8155,
    "county": "Agder"
  },
  {
    "id": "Q502866",
    "name": "Audna",
    "length": 55,
    "photo": "https://commons.wikimedia.org/wiki/Special:FilePath/Lindesnes%20Audna%20outlet%20IMG%201341%20nature%20reserve.JPG?width=1024",
    "lat": 58.0578,
    "lon": 7.2791,
    "county": "Agder"
  },
  {
    "id": "Q1144836",
    "name": "Komagelva",
    "length": 52.6,
    "lat": 70.2414,
    "lon": 30.52351,
    "county": "Finnmark"
  },
  {
    "id": "Q2503760",
    "name": "Munkelva",
    "length": 51.8,
    "lat": 69.64403,
    "lon": 29.43719,
    "county": "Finnmark"
  },
  {
    "id": "Q19369136",
    "name": "Sandfjordelva",
    "length": 51.3,
    "photo": "https://commons.wikimedia.org/wiki/Special:FilePath/Sandfjordelva%20in%20B%C3%A5tsfjord.jpg?width=1024",
    "lat": 70.3675,
    "lon": 29.6943,
    "county": "Finnmark"
  },
  {
    "id": "Q35406339",
    "name": "Sukielva",
    "length": 51.2,
    "lat": 70.2645,
    "lon": 28.18,
    "county": "Finnmark"
  },
  {
    "id": "Q2203089",
    "name": "Røssåga",
    "length": 50,
    "photo": "https://commons.wikimedia.org/wiki/Special:FilePath/R%C3%B8ss%C3%A5ga%2020090624%20DSCN5417.jpg?width=1024",
    "lat": 66.160948,
    "lon": 13.802576,
    "county": "Nordland"
  },
  {
    "id": "Q1515239",
    "name": "Stjørdalselva",
    "length": 50,
    "photo": "https://commons.wikimedia.org/wiki/Special:FilePath/Stj%C3%B6rdal%20IMG%206158%20stj%C3%B6rdalselva%20river%20outlet.JPG?width=1024",
    "lat": 63.45059,
    "lon": 10.92985,
    "county": "Trøndelag"
  },
  {
    "id": "Q430480",
    "name": "Jakobselva",
    "length": 49.6,
    "photo": "https://commons.wikimedia.org/wiki/Special:FilePath/Man%20and%20two%20boats%20at%20Jakobselva.jpg?width=1024",
    "lat": 69.70831,
    "lon": 30.86909,
    "county": "Finnmark"
  },
  {
    "id": "Q41245845",
    "name": "Syltefjordelva",
    "length": 49.3,
    "lat": 70.5314,
    "lon": 30.0128,
    "county": "Finnmark"
  },
  {
    "id": "Q60291066",
    "name": "Lákšjohka",
    "length": 48.8,
    "lat": 70.29392,
    "lon": 27.31358,
    "county": "Finnmark"
  },
  {
    "id": "Q12003390",
    "name": "Stordalselva",
    "length": 48.5,
    "photo": "https://commons.wikimedia.org/wiki/Special:FilePath/PICT0628%20Stovelfossen%20laks.jpg?width=1024",
    "lat": 63.95,
    "lon": 10.233333333333,
    "county": "Trøndelag"
  },
  {
    "id": "Q537889",
    "name": "Drammenselva",
    "length": 48,
    "photo": "https://commons.wikimedia.org/wiki/Special:FilePath/Drammenselva%20-%20Drammen%2C%20Norway%20-%20August%201989.jpg?width=1024",
    "lat": 60.010833333333,
    "lon": 10.042777777778,
    "county": "Buskerud"
  },
  {
    "id": "Q37343662",
    "name": "Vesterelva",
    "length": 46.7,
    "lat": 70.16197,
    "lon": 28.58075,
    "county": "Finnmark"
  }
]
