[
  {
    "id": "Q513676",
    "name": "Balåifossen",
    "height": 850,
    "lat": 60.56138889,
    "lon": 7.00805556,
    "county": "Vestland"
  },
  {
    "id": "Q3361971",
    "name": "Vinnufossen",
    "height": 845,
    "photo": "https://commons.wikimedia.org/wiki/Special:FilePath/Vinnufossen%2C%20Sunndal%2C%20Norway%20%28front%29.jpg?width=1024",
    "lat": 62.66345,
    "lon": 8.66994,
    "county": "Møre og Romsdal"
  },
  {
    "id": "Q3115892",
    "name": "Strupenfossen",
    "height": 820,
    "lat": 61.70811,
    "lon": 6.63512,
    "county": "Vestland"
  },
  {
    "id": "Q3044963",
    "name": "Ramnefjellsfossen",
    "height": 818,
    "photo": "https://commons.wikimedia.org/wiki/Special:FilePath/Ramnefjellsfossen-2.jpg?width=1024",
    "lat": 61.78941,
    "lon": 6.96664,
    "county": "Vestland"
  },
  {
    "id": "Q2662478",
    "name": "Mongefossen",
    "height": 773,
    "photo": "https://commons.wikimedia.org/wiki/Special:FilePath/Mongefossen-Romsdalen-2020.jpg?width=1024",
    "lat": 62.44281,
    "lon": 7.89529,
    "county": "Møre og Romsdal"
  },
  {
    "id": "Q616058",
    "name": "Kjelfossen",
    "height": 755,
    "photo": "https://commons.wikimedia.org/wiki/Special:FilePath/Kjelfossen%20i%20Gudvangen%20i%20Aurland%20kommune.jpg?width=1024",
    "lat": 60.874114,
    "lon": 6.852065,
    "county": "Vestland"
  },
  {
    "id": "Q1471951",
    "name": "Mardalsfossen",
    "height": 705,
    "photo": "https://commons.wikimedia.org/wiki/Special:FilePath/Mardalsfossen%20i%20Eikesdal.jpg?width=1024",
    "lat": 62.4714,
    "lon": 8.1199,
    "county": "Møre og Romsdal"
  },
  {
    "id": "Q11298858",
    "name": "Vermafossen",
    "height": 381,
    "photo": "https://commons.wikimedia.org/wiki/Special:FilePath/3%20fosser%20-%20NB%20MS%20G4%200697.jpg?width=1024",
    "lat": 62.34775,
    "lon": 8.04281,
    "county": "Møre og Romsdal"
  },
  {
    "id": "Q38437",
    "name": "Vettisfossen",
    "height": 275,
    "photo": "https://commons.wikimedia.org/wiki/Special:FilePath/Vettisfossen%20Utladalen%20closeup2.jpg?width=1024",
    "lat": 61.38,
    "lon": 7.9458333333333,
    "county": "Vestland"
  },
  {
    "id": "Q986495",
    "name": "Rjukanfossen",
    "height": 238,
    "photo": "https://commons.wikimedia.org/wiki/Special:FilePath/Gezicht%20op%20Rjukanfossen%2C%20een%20waterval%20in%20Telemark%2C%20RP-F-F01159-J.jpg?width=1024",
    "lat": 59.86644,
    "lon": 8.47896,
    "county": "Telemark"
  },
  {
    "id": "Q203406",
    "name": "Kjosfossen",
    "height": 225,
    "photo": "https://commons.wikimedia.org/wiki/Special:FilePath/2023-07-05-Kjosfossen-6817.jpg?width=1024",
    "lat": 60.746111111111,
    "lon": 7.1375,
    "county": "Vestland"
  },
  {
    "id": "Q11336551",
    "name": "Vedalsfossen",
    "height": 200,
    "photo": "https://commons.wikimedia.org/wiki/Special:FilePath/Vedalsfossen.jpg?width=1024",
    "lat": 60.3873,
    "lon": 7.12248,
    "county": "Vestland"
  },
  {
    "id": "Q38588",
    "name": "Vøringsfossen",
    "height": 184,
    "photo": "https://commons.wikimedia.org/wiki/Special:FilePath/V%C3%B8ringsfossen%2C%202020%20%284%29.jpg?width=1024",
    "lat": 60.426888888889,
    "lon": 7.2511388888889,
    "county": "Vestland"
  },
  {
    "id": "Q37387",
    "name": "Låtefossen",
    "height": 165,
    "photo": "https://commons.wikimedia.org/wiki/Special:FilePath/L%C3%A5tefossen%2C%20Norway%2020170524%20134232.jpg?width=1024",
    "lat": 59.947666666667,
    "lon": 6.5851666666667,
    "county": "Vestland"
  },
  {
    "id": "Q1618819",
    "name": "Huldefossen",
    "height": 90,
    "photo": "https://commons.wikimedia.org/wiki/Special:FilePath/Huldefossen%20in%20Sunnfjord.jpg?width=1024",
    "lat": 61.43132,
    "lon": 5.99328,
    "county": "Vestland"
  },
  {
    "id": "Q131101512",
    "name": "Storelvfossen",
    "height": 60,
    "lat": 70.161288,
    "lon": 29.771679,
    "county": "Finnmark"
  },
  {
    "id": "Q1789467",
    "name": "Steinsdalsfossen",
    "height": 51,
    "photo": "https://commons.wikimedia.org/wiki/Special:FilePath/Norwegen%201998%20%28086%29%20Steinsdalsfossen%20%2833312285073%29.jpg?width=1024",
    "lat": 60.370833,
    "lon": 6.102778,
    "county": "Vestland"
  }
]
